[
  {
    "name": "Mono",
    "lat": "37.9158363",
    "lon": "-118.8751668"
  },
  {
    "name": "Kings",
    "lat": "36.0724780",
    "lon": "-119.8155301"
  },
  {
    "name": "San Benito",
    "lat": "36.6116507",
    "lon": "-121.0858108"
  },
  {
    "name": "Fresno",
    "lat": "36.7610058",
    "lon": "-119.6550193"
  },
  {
    "name": "Plumas",
    "lat": "39.9922953",
    "lon": "-120.8243709"
  },
  {
    "name": "Sierra",
    "lat": "39.5769252",
    "lon": "-120.5219926"
  },
  {
    "name": "Madera",
    "lat": "37.2098213",
    "lon": "-119.7498023"
  },
  {
    "name": "Mendocino",
    "lat": "39.4323876",
    "lon": "-123.4428811"
  },
  {
    "name": "Marin",
    "lat": "38.0518169",
    "lon": "-122.7459738"
  },
  {
    "name": "San Luis Obispo",
    "lat": "35.3852242",
    "lon": "-120.4475445"
  },
  {
    "name": "Shasta",
    "lat": "40.7605142",
    "lon": "-122.0435556"
  },
  {
    "name": "Alameda",
    "lat": "37.6471385",
    "lon": "-121.9124880"
  },
  {
    "name": "Inyo",
    "lat": "36.5619770",
    "lon": "-117.4039269"
  },
  {
    "name": "Contra Costa",
    "lat": "37.9194790",
    "lon": "-121.9515431"
  },
  {
    "name": "Alpine",
    "lat": "38.6217831",
    "lon": "-119.7983522"
  },
  {
    "name": "Humboldt",
    "lat": "40.7066554",
    "lon": "-123.9261757"
  },
  {
    "name": "Sutter",
    "lat": "39.0361898",
    "lon": "-121.7039397"
  },
  {
    "name": "San Diego",
    "lat": "33.0236041",
    "lon": "-116.7761174"
  },
  {
    "name": "Orange",
    "lat": "33.6756872",
    "lon": "-117.7772068"
  },
  {
    "name": "Riverside",
    "lat": "33.7298275",
    "lon": "-116.0022389"
  },
  {
    "name": "San Mateo",
    "lat": "37.4146725",
    "lon": "-122.3715457"
  },
  {
    "name": "Modoc",
    "lat": "41.5929185",
    "lon": "-120.7183704"
  },
  {
    "name": "Tulare",
    "lat": "36.2288339",
    "lon": "-118.7810551"
  },
  {
    "name": "Siskiyou",
    "lat": "41.5879861",
    "lon": "-122.5332868"
  },
  {
    "name": "Ventura",
    "lat": "34.3587415",
    "lon": "-119.1331432"
  },
  {
    "name": "Mariposa",
    "lat": "37.5700295",
    "lon": "-119.9128613"
  },
  {
    "name": "San Bernardino",
    "lat": "34.8572198",
    "lon": "-116.1811967"
  },
  {
    "name": "Yuba",
    "lat": "39.2701300",
    "lon": "-121.3442587"
  },
  {
    "name": "Merced",
    "lat": "37.1948063",
    "lon": "-120.7228019"
  },
  {
    "name": "Kern",
    "lat": "35.3466288",
    "lon": "-118.7295064"
  },
  {
    "name": "Sacramento",
    "lat": "38.4500161",
    "lon": "-121.3404408"
  },
  {
    "name": "Calaveras",
    "lat": "38.1838996",
    "lon": "-120.5614415"
  },
  {
    "name": "Colusa",
    "lat": "39.1777385",
    "lon": "-122.2375629"
  },
  {
    "name": "Amador",
    "lat": "38.4435501",
    "lon": "-120.6538563"
  },
  {
    "name": "San Francisco",
    "lat": "37.7272391",
    "lon": "-123.0322294"
  },
  {
    "name": "Tuolumne",
    "lat": "38.0214344",
    "lon": "-119.9647335"
  },
  {
    "name": "El Dorado",
    "lat": "38.7856116",
    "lon": "-120.5342245"
  },
  {
    "name": "Monterey",
    "lat": "36.2401070",
    "lon": "-121.3155723"
  },
  {
    "name": "Santa Clara",
    "lat": "37.2206954",
    "lon": "-121.6905097"
  },
  {
    "name": "Santa Barbara",
    "lat": "34.5370572",
    "lon": "-120.0399729"
  },
  {
    "name": "Sonoma",
    "lat": "38.5251824",
    "lon": "-122.9261095"
  },
  {
    "name": "Yolo",
    "lat": "38.6795955",
    "lon": "-121.9024413"
  },
  {
    "name": "Tehama",
    "lat": "40.1261573",
    "lon": "-122.2322737"
  },
  {
    "name": "Santa Cruz",
    "lat": "37.0124883",
    "lon": "-122.0072050"
  },
  {
    "name": "Lassen",
    "lat": "40.7210862",
    "lon": "-120.6299518"
  },
  {
    "name": "San Joaquin",
    "lat": "37.9349815",
    "lon": "-121.2722440"
  },
  {
    "name": "Imperial",
    "lat": "33.0408143",
    "lon": "-115.3554001"
  },
  {
    "name": "Lake",
    "lat": "39.0948019",
    "lon": "-122.7467569"
  },
  {
    "name": "Trinity",
    "lat": "40.6478033",
    "lon": "-123.1144760"
  },
  {
    "name": "Nevada",
    "lat": "39.2975082",
    "lon": "-120.7713429"
  },
  {
    "name": "Glenn",
    "lat": "39.6025462",
    "lon": "-122.4016998"
  },
  {
    "name": "Placer",
    "lat": "39.0620323",
    "lon": "-120.7227181"
  },
  {
    "name": "Los Angeles",
    "lat": "34.1963983",
    "lon": "-118.2618616"
  },
  {
    "name": "Del Norte",
    "lat": "41.7639580",
    "lon": "-124.0036140"
  },
  {
    "name": "Napa",
    "lat": "38.5070999",
    "lon": "-122.3259045"
  },
  {
    "name": "Solano",
    "lat": "38.2672255",
    "lon": "-121.9395940"
  },
  {
    "name": "Butte",
    "lat": "39.6659588",
    "lon": "-121.6019188"
  },
  {
    "name": "Stanislaus",
    "lat": "37.5623162",
    "lon": "-121.0028311"
  }
]